[{"ID": 1,"post_title": "University of New England Masque","post_status": "publish","post_type": "post","Location": "Booloominbah Drive, Armidale, NSW 2350","Longitude": 151.6458629,"Latitude": -30.4895413}, {"ID": 32,"post_title": "Darul Imaan Wolli Creek Mosque","post_status": "publish","post_type": "post","Location": "10 Eden Street, Wolli Creek. NSW 2205","Longitude": 151.1492803,"Latitude": -33.9367169}, {"ID": 38,"post_title": "Artarmon - Hampden Road Mosque","post_status": "publish","post_type": "post","Location": "Hampden Road, Artarmon, NSW 2064","Longitude": 151.1868523,"Latitude": -33.8099533}, {"ID": 40,"post_title": "Ashfield - Holden Street Musalla","post_status": "publish","post_type": "post","Location": "Unit 1/27 Holden Street, Ashfield, NSW 2131","Longitude": 151.125152,"Latitude": -33.89122}, {"ID": 45,"post_title": "Ashfield - Liverpool Road Musalla","post_status": "publish","post_type": "post","Location": "241A Liverpool Road, Ashfield. NSW 2131","Longitude": 151.125612,"Latitude": -33.888994}, {"ID": 56,"post_title": "Asquith - Hornsby musalla","post_status": "publish","post_type": "post","Location": "373A Pacific Highway, Asquith, NSW 2077","Longitude": 151.107404,"Latitude": -33.688372}, {"ID": 63,"post_title": "Auburn - Bukhari House Musalla","post_status": "publish","post_type": "post","Location": "109 Auburn Road, Auburn NSW 2144","Longitude": 151.0321823,"Latitude": -33.8539137}, {"ID": 65,"post_title": "Auburn - Chisholm Road - IDCA Musalla","post_status": "publish","post_type": "post","Location": "349 Chisholm Road, Auburn. NSW 2144","Longitude": 151.016068,"Latitude": -33.875074}, {"ID": 69,"post_title": "Auburn - Gelibolu Parade Gallipoli Mosque","post_status": "publish","post_type": "post","Location": "15-19 Gelibolu Parade, Auburn, NSW 2144","Longitude": 151.035976,"Latitude": -33.85234}, {"ID": 71,"post_title": "Auburn - Harrow Road Auburn Islamic Centre","post_status": "publish","post_type": "post","Location": "Civic Centre, 1 Susan Street, Auburn, NSW 2144","Longitude": 151.033374,"Latitude": -33.854877}, {"ID": 73,"post_title": "Auburn - Omar Mosque","post_status": "publish","post_type": "post","Location": "43 Harrow Road, Auburn, NSW 2144","Longitude": 151.0305694,"Latitude": -33.8548563}, {"ID": 75,"post_title": "Bankstown - Adnum Lane Musallah","post_status": "publish","post_type": "post","Location": "108 Adnum Lane, Bankstown, NSW 2200","Longitude": 151.033624,"Latitude": -33.9168874}, {"ID": 77,"post_title": "Bankstown - Daar Ibn Abbas College - Cross Street Musalla","post_status": "publish","post_type": "post","Location": "15-17 Cross Street, Bankstown, NSW 2200","Longitude": 151.038896,"Latitude": -33.920366}, {"ID": 81,"post_title": "Bankstown - Fitya Centre Musalla","post_status": "publish","post_type": "post","Location": "1A/4 French Avenue, Bankstown NSW 2200","Longitude": 151.036401,"Latitude": -33.913706}, {"ID": 83,"post_title": "Bankstown - PCYC Jummah","post_status": "publish","post_type": "post","Location": "French Ave & Meredith Street, Bankstown, NSW 2200","Longitude": 151.0321807,"Latitude": -33.9128375}, {"ID": 85,"post_title": "Bankstown - Winspear Avenue Mosque","post_status": "publish","post_type": "post","Location": "2 Winspear Avenue, Bankstown, NSW 2200","Longitude": 151.028203,"Latitude": -33.916673}, {"ID": 87,"post_title": "Bathurst - Al Sahabah Kelso Mosque","post_status": "publish","post_type": "post","Location": "75 Bonnor Street, Kelso, NSW 2795","Longitude": 149.619808,"Latitude": -33.415191}, {"ID": 89,"post_title": "Kellyville HDMS Jummah","post_status": "publish","post_type": "post","Location": "Spurway Drive, Crestwood. NSW 2153","Longitude": 150.9714645,"Latitude": -33.7517972}, {"ID": 91,"post_title": "Belmore - Al Azhar Mosque","post_status": "publish","post_type": "post","Location": "172B Burwood Road, Belmore, NSW 2192","Longitude": 151.084534,"Latitude": -33.909353}, {"ID": 94,"post_title": "Blacktown - Afghan Osman Mosque","post_status": "publish","post_type": "post","Location": "15 Prince Street, Blacktown. NSW 2148","Longitude": 150.9107412,"Latitude": -33.7670199}, {"ID": 96,"post_title": "Brighton Le Sands - Bay Street Musalla","post_status": "publish","post_type": "post","Location": "283 Bay Street, Brighton-Le-Sands. NSW 2216","Longitude": 151.153527,"Latitude": -33.960005}, {"ID": 98,"post_title": "Broken Hill North - William Street Mosque","post_status": "publish","post_type": "post","Location": "Williams Street & Buck Street, Broken Hill North, NSW 2880","Longitude": 141.4775274,"Latitude": -31.9373368}, {"ID": 100,"post_title": "Burwood - George Street Musalla","post_status": "publish","post_type": "post","Location": "Unit 3, 20 George Street, Burwood, NSW 2134","Longitude": 151.104781,"Latitude": -33.876432}, {"ID": 102,"post_title": "Cabramatta West - Uthman Bin Affan Mosque","post_status": "publish","post_type": "post","Location": "22 Water Street, Cabramatta West, NSW 2166","Longitude": 150.915991,"Latitude": -33.889095}, {"ID": 104,"post_title": "Callaghan - Newcastle University Faith Centre Musalla","post_status": "publish","post_type": "post","Location": "Newcastle University , University Drive, Callaghan, NSW 2308","Longitude": 151.697491,"Latitude": -32.896641}, {"ID": 106,"post_title": "Campbelltown - UWS Macarthur Musalla","post_status": "publish","post_type": "post","Location": "University of western sydney,  Campbelltown, NSW 2560","Longitude": 150.793469,"Latitude": -34.069698}, {"ID": 109,"post_title": "Campbelltown Youth Centre (CYC) Jummah","post_status": "publish","post_type": "post","Location": "Unit F1-F2, 5/7 Hepher Road, Campbelltown, NSW 2560","Longitude": 150.808093,"Latitude": -34.054727}, {"ID": 112,"post_title": "Campsie - Wilfred Lane Musalla","post_status": "publish","post_type": "post","Location": "Unit 1, 19-21 Wilfred Lane, Campsie, NSW 2194","Longitude": 151.100049,"Latitude": -33.910613}, {"ID": 115,"post_title": "Charmhaven - Lowana Avenue Musalla","post_status": "publish","post_type": "post","Location": "18 Pacific Highway, Charmhaven, NSW 2263","Longitude": 151.505146,"Latitude": -33.221923}, {"ID": 117,"post_title": "Chester Hill - Banool Street Jummah","post_status": "publish","post_type": "post","Location": "Terry Lamb Complex, Banool St, Chester Hill, NSW 2162","Longitude": 150.9964555,"Latitude": -33.8808894}, {"ID": 119,"post_title": "Coffs Harbour - Prince Street Musalla ","post_status": "publish","post_type": "post","Location": "55 prince st, Coffs Harbour, NSW 2450","Longitude": 153.132546,"Latitude": -30.288935}, {"ID": 121,"post_title": "Coffs Harbour - Southern Cross University Musalla","post_status": "publish","post_type": "post","Location": "Coffs Harbour Campus, Doug Knight Drive, Coffs Harbour NSW 2450","Longitude": 153.10123,"Latitude": -30.32585}, {"ID": 123,"post_title": "Cringila - Illawarra - Bilal Mosque","post_status": "publish","post_type": "post","Location": "1 Bethlehem Street, Cringila, NSW 2502","Longitude": 150.874763,"Latitude": -34.469289}, {"ID": 126,"post_title": "Cumberland - University of Sydney Musalla","post_status": "publish","post_type": "post","Location": "Room U320/U319, Level 3, Old Teachers College, Sydney Uni, Manning Rd, Cumberland, NSW 2006","Longitude": 151.1870998,"Latitude": "-33.8884934,"}, {"ID": 130,"post_title": "Dee Why - Manly Warringah Mosque","post_status": "publish","post_type": "post","Location": "12 South Creek Road, Dee Why, NSW 2099","Longitude": 151.2932502,"Latitude": -33.7435901}, {"ID": 132,"post_title": "Dubbo - Kotku Mosque","post_status": "publish","post_type": "post","Location": "71A Tamworth Street, Dubbo, NSW 2830","Longitude": 148.610641,"Latitude": -32.260923}, {"ID": 134,"post_title": "Dural - Old Northern Road Dural Iqama Musalla","post_status": "publish","post_type": "post","Location": "937 Old Northern Rd, Dural, NSW 2158","Longitude": 151.0283613,"Latitude": -33.6823253}, {"ID": 136,"post_title": "Elmore Vale - Croudace Road Newcastle Mosque","post_status": "publish","post_type": "post","Location": "Croudace Rd & Garsdale Ave, Elermore Vale NSW 2287","Longitude": 151.675383,"Latitude": -32.9161471}, {"ID": 139,"post_title": "Erskineville - John Street Mosque","post_status": "publish","post_type": "post","Location": "13 John Street, Erskineville, NSW 2043","Longitude": 151.184497,"Latitude": -33.898732}, {"ID": 142,"post_title": "Glendenning - Al Tadhkeer Society","post_status": "publish","post_type": "post","Location": "Unit 5/155 Glendenning Road, Glendenning, NSW 2761","Longitude": 150.852804,"Latitude": -33.74642}, {"ID": 145,"post_title": "Gosford - Greenview Road Musalla","post_status": "publish","post_type": "post","Location": "13 Greenview road, Narara/Gosford, NSW 2250","Longitude": 151.340721,"Latitude": "-33.405258,"}, {"ID": 148,"post_title": "Granville - Spring Garden Street Mosque","post_status": "publish","post_type": "post","Location": "20 The Avenue, Granville, NSW 2142","Longitude": 151.0072372,"Latitude": -33.831839}, {"ID": 150,"post_title": "Granville - Youth Association (GYA) Mosque","post_status": "publish","post_type": "post","Location": "288 Clyde Street, South Granville, NSW 2142","Longitude": 151.010336,"Latitude": -33.858182}, {"ID": 153,"post_title": "Granville South - Masjid Al Bukhari","post_status": "publish","post_type": "post","Location": "1-3 Ferndell St, South Granville, NSW 2142","Longitude": 151.010003,"Latitude": -33.86391}, {"ID": 157,"post_title": "Green Valley - Wilson Road Mosque","post_status": "publish","post_type": "post","Location": "264 Wilson Road, Green Valley, NSW 2168","Longitude": 150.8673087,"Latitude": -33.8984716}, {"ID": 159,"post_title": "Greenacre - Anzac St Musalla","post_status": "publish","post_type": "post","Location": "Anzac Street, Greenacre. NSW 2200","Longitude": 151.042572,"Latitude": -33.901918}, {"ID": 161,"post_title": "Greenacre Musalla","post_status": "publish","post_type": "post","Location": "12 boronia rd, greenacre, nsw 2190","Longitude": 151.0566643,"Latitude": -33.9067264}, {"ID": 164,"post_title": "Griffith - Kotku Riaz Mosque","post_status": "publish","post_type": "post","Location": "58 Benerembah Lane, Griffith. NSW 2680","Longitude": 146.033947,"Latitude": -34.288035}, {"ID": 166,"post_title": "Guildford - Bursill Street - Jummah Only","post_status": "publish","post_type": "post","Location": "97 Bursill Street, Guildford, NSW 2161","Longitude": 150.9889211,"Latitude": -33.8504438}, {"ID": 169,"post_title": "Guildford - Mountford Ave Mosque","post_status": "publish","post_type": "post","Location": "64 Mountford Avenue, Guildford. NSW 2161","Longitude": 150.988518,"Latitude": -33.852615}, {"ID": 171,"post_title": "Guildford - Old Guildford Railway St Mosque","post_status": "publish","post_type": "post","Location": "3 Railway St, Old Guildford, NSW 2161","Longitude": 150.982713,"Latitude": -33.858123}, {"ID": 173,"post_title": "Gwynneville - Omar Masjid Wollongong","post_status": "publish","post_type": "post","Location": "9 Foley Street, Gwynneville, NSW 2500","Longitude": 150.886261,"Latitude": -34.413178}, {"ID": 175,"post_title": "Gwynneville - University of Wollongong Musalla","post_status": "publish","post_type": "post","Location": "University of Wollongong, Northfields Avenue, Gwynneville, NSW 2500","Longitude": 150.8796203,"Latitude": -34.4082474}, {"ID": 178,"post_title": "Harris Park - Grand Avenue North Musalla","post_status": "publish","post_type": "post","Location": "Corner of Grand Avenue North and River Road West, Harris Park. NSW 2150","Longitude": 151.0199496,"Latitude": -33.8163037}, {"ID": 182,"post_title": "Hillsdale - Beauchamp Road Musallah","post_status": "publish","post_type": "post","Location": "Beauchamp Road, Hillsdale. NSW 2036","Longitude": 151.226047,"Latitude": -33.956108}, {"ID": 184,"post_title": "Hurstville - Culwulla Street Musalla","post_status": "publish","post_type": "post","Location": "18 Culwulla Street, South Hurstville, NSW 2221","Longitude": 151.104727,"Latitude": -33.974838}, {"ID": 186,"post_title": "Ingleburn Islamic Centre","post_status": "publish","post_type": "post","Location": "13-17 Eagleview Road, Minto NSW 2566","Longitude": 150.867467,"Latitude": -34.019574}, {"ID": 188,"post_title": "Sydney Airport Mosque","post_status": "publish","post_type": "post","Location": "2nd Floor, 1215 Botany Road, Mascot","Longitude": 151.194502,"Latitude": -33.931951}, {"ID": 190,"post_title": "Kensington - ANZAC Parade Musalla","post_status": "publish","post_type": "post","Location": "Unit 1, 178 ANZAC Parade, Kensington, NSW 2033","Longitude": 151.2235207,"Latitude": -33.9098464}, {"ID": 192,"post_title": "Kensington - University of NSW Musalla","post_status": "publish","post_type": "post","Location": "3rd Floor, Square House, UNSW, Kensington, NSW 2052","Longitude": 151.2302268,"Latitude": -33.9172238}, {"ID": 197,"post_title": "Kingswood - Bringelly Road Musalah [Jummah Only]","post_status": "publish","post_type": "post","Location": "19 Bringelly Road, Kingswood. NSW 2747","Longitude": 150.71935,"Latitude": -33.761253}, {"ID": 201,"post_title": "Kingswood - UWS Nepean Musalla","post_status": "publish","post_type": "post","Location": "UWS Nepean Campus, South Penrith, NSW 2747","Longitude": 150.7445763,"Latitude": -33.7668664}, {"ID": 203,"post_title": "Lakemba -  Haldon St - ASWJ Musalla","post_status": "publish","post_type": "post","Location": "132 Haldon St, Lakemba, NSW 2195","Longitude": 151.0782676,"Latitude": -33.922158}, {"ID": 205,"post_title": "Lakemba - Ali ibn Abu Taleb Mosque","post_status": "publish","post_type": "post","Location": "65-67 Wangee Road, Lakemba, NSW 2195","Longitude": 151.074138,"Latitude": -33.912607}, {"ID": 207,"post_title": "Lakemba - Ernest Street Mosque","post_status": "publish","post_type": "post","Location": "20 Ernest Street, Lakemba, NSW 2195","Longitude": 151.073268,"Latitude": -33.922138}, {"ID": 209,"post_title": "Lakemba - Railway Parade Musalla","post_status": "publish","post_type": "post","Location": "19 Haldon Street, Lakemba, NSW 2195","Longitude": 151.0772275,"Latitude": -33.9201456}, {"ID": 211,"post_title": "Lakemba - UMA Center Croydon Street Musalla (Jummah Only)","post_status": "publish","post_type": "post","Location": "69 Croydon Street, Lakemba, NSW 2195","Longitude": 151.07685,"Latitude": -33.923824}, {"ID": 213,"post_title": "Lalor Park - Freeman Street Musalla","post_status": "publish","post_type": "post","Location": "2 Freeman St, Lalor Park, NSW 2147","Longitude": 150.9306101,"Latitude": -33.761496}, {"ID": 215,"post_title": "Lismore - Leycester Street BP Musalla (Jummah only) ","post_status": "publish","post_type": "post","Location": "2 Leycester Street, Lismore, NSW 2480","Longitude": 153.2844364,"Latitude": -28.8046223}, {"ID": 217,"post_title": "Lismore - Southern Cross University Musalla","post_status": "publish","post_type": "post","Location": "Lismore Campus, Military Road, East Lismore NSW 2480","Longitude": 153.2999610,"Latitude": -28.8182063}, {"ID": 219,"post_title": "Liverpool - Islamic House Mosque","post_status": "publish","post_type": "post","Location": "2094 Camden Valley Way, Edmondson Park, NSW 2170","Longitude": 150.8671198,"Latitude": -33.9559328}, {"ID": 377,"post_title": "Liverpool GIYC Mosque","post_status": "publish","post_type": "post","Location": "265 George St, Liverpool, NSW, 2170","Longitude": 150.924471,"Latitude": -33.924641}, {"ID": 381,"post_title": "Liverpool - Hinchinbrook Mosque","post_status": "publish","post_type": "post","Location": "6 Wilson Road, Hinchinbrook, NSW, 2168","Longitude": 150.861889,"Latitude": -33.924512}, {"ID": 384,"post_title": "Liverpool Hospital Musalla","post_status": "publish","post_type": "post","Location": "Liverpool Hospital, Liverpool, NSW 2170","Longitude": 150.929103,"Latitude": -33.92018}, {"ID": 387,"post_title": "Liverpool - Whitlam Leisure Centre Musallah (Jummah Only)","post_status": "publish","post_type": "post","Location": "Whitlam Leisure Centre, 90A Memorial Avenue, Liverpool, NSW, 2170","Longitude": 150.91508,"Latitude": -33.925326}, {"ID": 391,"post_title": "Macquarie Fields-Islamic Education Centre","post_status": "publish","post_type": "post","Location": "50 Saywell Rd, Macquarie Fields, NSW, 2564","Longitude": 150.882896,"Latitude": -33.989892}, {"ID": 394,"post_title": "Marrickville - Station Street Musalla","post_status": "publish","post_type": "post","Location": "2 Station Street, Marrickville, NSW, 2204","Longitude": 151.153449,"Latitude": -33.914508}, {"ID": 397,"post_title": "Matraville - Bunnerong Road Mosque","post_status": "publish","post_type": "post","Location": "Bunnerong Rd & Beauchamp Rd, Matraville, NSW, 2036","Longitude": 151.230321,"Latitude": -33.955607}, {"ID": 399,"post_title": "Mayfield - Islamic Centre of Newcastle","post_status": "publish","post_type": "post","Location": "3-5 Victoria Street, Mayfield, NSW, 2304","Longitude": 151.738822,"Latitude": -32.898174}, {"ID": 402,"post_title": "Merrylands - Miller Street Community Centre (Jummah Only)","post_status": "publish","post_type": "post","Location": "L1, 17 Miller Street, Merrylands, NSW, 2160","Longitude": 150.989629,"Latitude": -33.837724}, {"ID": 405,"post_title": "Milperra - UWS Bankstown Musalla","post_status": "publish","post_type": "post","Location": "Bullecourt avenue, Milperra, NSW, 2214","Longitude": 150.990279,"Latitude": -33.940654}, {"ID": 408,"post_title": "Minto - Mosque","post_status": "publish","post_type": "post","Location": "44-48 Westmoreland Road, Minto, NSW, 2560","Longitude": 150.847161,"Latitude": -34.043491}, {"ID": 410,"post_title": "Mount Druitt - Nepean Mosque","post_status": "publish","post_type": "post","Location": "52 Hythe Street, Mt Druitt, NSW, 2770","Longitude": 150.826079,"Latitude": -33.764436}, {"ID": 412,"post_title": "Mt Druitt Village - Musallah (Jummah Only)","post_status": "publish","post_type": "post","Location": "Mount Druitt Community Hall, 87 Mt Druitt Road, Mt Druitt Village, NSW 2770","Longitude": 150.811199,"Latitude": -33.773137}, {"ID": 415,"post_title": "Newcastle - Metcalfe Street Mosque","post_status": "publish","post_type": "post","Location": "6 Metcalfe Street, Wallsend, NSW, 2287","Longitude": 151.669804,"Latitude": -32.903904}, {"ID": 417,"post_title": "North Ryde - Macquarie University Musalla","post_status": "publish","post_type": "post","Location": "Macquarie University, North Ryde, NSW, 2113","Longitude": 151.112762,"Latitude": -33.773742}, {"ID": 419,"post_title": "North Sydney - McMahons Point Musalla","post_status": "publish","post_type": "post","Location": "McMahons Point Community Centre, 165 Blues Point Road, McMahons Point, NSW, 2060","Longitude": 151.205217,"Latitude": -33.843099}, {"ID": 421,"post_title": "Parramatta - Marsden Street Mosque","post_status": "publish","post_type": "post","Location": "150 Marsden Street, Parramatta, NSW 2150","Longitude": 151.001987,"Latitude": -33.813552}, {"ID": 423,"post_title": "Parramatta - UWS Rydalmere Musalla","post_status": "publish","post_type": "post","Location": "Victoria Road, Rydalmere, NSW, 2116","Longitude": 151.040131,"Latitude": -33.812063}, {"ID": 426,"post_title": "Penshurst - Forest Road Mosque","post_status": "publish","post_type": "post","Location": "445 Forest Road, Penshurst, NSW, 2222","Longitude": 151.083914,"Latitude": -33.963206}, {"ID": 428,"post_title": "Prospect - Blacktown Road Musalla","post_status": "publish","post_type": "post","Location": "420 Blacktown Road, Prospect, NSW, 2148","Longitude": 150.927438,"Latitude": -33.802886}, {"ID": 430,"post_title": "Punchbowl - Catherine Street AIDA Mosque","post_status": "publish","post_type": "post","Location": "1 Catherine Street, Punchbowl. NSW, 2196","Longitude": 151.052996,"Latitude": -33.922833}, {"ID": 433,"post_title": "Punchbowl - Matthews Street Musalla","post_status": "publish","post_type": "post","Location": "27 Matthews Street, Punchbowl, NSW, 2196","Longitude": 151.057367,"Latitude": -33.927122}, {"ID": 436,"post_title": "Quakers Hill - Brocas Place Musalla","post_status": "publish","post_type": "post","Location": "2 Brocas Place, Quakers Hill, NSW, 2763","Longitude": 150.903971,"Latitude": -33.726697}, {"ID": 439,"post_title": "Quakers Hill - UWS Blacktown Musalla","post_status": "publish","post_type": "post","Location": "university of western sydney, Eastern Road, Quakers Hill. NSW, 2763","Longitude": 150.876928,"Latitude": -33.72624}, {"ID": 444,"post_title": "Quakers Hill Mosque","post_status": "publish","post_type": "post","Location": "37 Douglas Road, Quakers Hill, NSW 2763","Longitude": 150.882031,"Latitude": -33.729061}, {"ID": 447,"post_title": "Raymond Terrace - Heatherbrae Musalla","post_status": "publish","post_type": "post","Location": "206 Pacific Highway, Heatherbrae, NSW, 2324","Longitude": 151.737006,"Latitude": -32.780852}, {"ID": 449,"post_title": "Redfern - Cleveland Street Mosque","post_status": "publish","post_type": "post","Location": "328 Cleveland Street, Surry Hills, NSW, 2010","Longitude": 151.209498,"Latitude": -33.890315}, {"ID": 451,"post_title": "Redfern - Regent St Musalla","post_status": "publish","post_type": "post","Location": "161 Regent Street, Redfern, NSW, 2016","Longitude": 151.199775,"Latitude": -33.894038}, {"ID": 453,"post_title": "Regents Park - Amy Street Musalla","post_status": "publish","post_type": "post","Location": "Unit 5, 2 Amy Street, Regents Park, NSW, 2143","Longitude": 151.024335,"Latitude": -33.8842}, {"ID": 455,"post_title": "Revesby - Mavis Street Musalla","post_status": "publish","post_type": "post","Location": "Unit 10, 9 Mavis Street, Revesby, NSW, 2122","Longitude": 151.019476,"Latitude": -33.936616}, {"ID": 457,"post_title": "Richmond - UWS Hawkesbury Musalla","post_status": "publish","post_type": "post","Location": "University of Western Sydney - Hawkesbury Campus, Bourke Street, Richmond NSW 2753","Longitude": 150.742936,"Latitude": -33.611421}, {"ID": 459,"post_title": "Riverwood - Thurlow Street Musalla","post_status": "publish","post_type": "post","Location": "1st Floor, 54 Thurlow Street, Riverwood, NSW, 2210","Longitude": 151.053025,"Latitude": -33.951809}, {"ID": 461,"post_title": "Rockdale - Frederick Street Mosque","post_status": "publish","post_type": "post","Location": "2 Frederick Street, Rockdale, NSW, 2216","Longitude": 151.135461,"Latitude": -33.952922}, {"ID": 463,"post_title": "Rockdale - Railway Parade Musalla","post_status": "publish","post_type": "post","Location": "1st Floor, 89 Railway Parade, Rockdale, NSW 2216","Longitude": 151.136154,"Latitude": -33.952019}, {"ID": 467,"post_title": "Rooty Hill - O'Brien Street Mosque","post_status": "publish","post_type": "post","Location": "63 O'Brien Street, Mt. Druitt, NSW, 2770","Longitude": 150.826442,"Latitude": -33.759226}, {"ID": 469,"post_title": "Rydalmere - Primrose Avenue Mosque","post_status": "publish","post_type": "post","Location": "2 Primrose Avenue, Rydalmere. NSW 2115","Longitude": 151.051277,"Latitude": -33.813869}, {"ID": 471,"post_title": "Ryde - Blaxland Road - Ryde Islamic Centre","post_status": "publish","post_type": "post","Location": "3 Blaxland Road, Ryde. NSW 2112","Longitude": 151.109974,"Latitude": -33.816186}, {"ID": 473,"post_title": "Sefton - House of Peace Mosque","post_status": "publish","post_type": "post","Location": "11 Helen Street, Sefton, NSW, 2162","Longitude": 151.010638,"Latitude": -33.887962}, {"ID": 475,"post_title": "Smithfield - Bourke Street Mosque","post_status": "publish","post_type": "post","Location": "30 Bourke Street, Smithfield, NSW 2164","Longitude": 150.9274,"Latitude": -33.857154}, {"ID": 477,"post_title": "St Marys - Forrester Road IPDC Centre","post_status": "publish","post_type": "post","Location": "117 Forrester Road, St Marys, NSW 2760","Longitude": 150.775742,"Latitude": -33.75638}, {"ID": 479,"post_title": "St. Clair - Banks Drive Musalla","post_status": "publish","post_type": "post","Location": "81 Banks Drive, St. Clair, NSW, 2759","Longitude": 150.782959,"Latitude": -33.798098}, {"ID": 481,"post_title": "Strathfield - Albert Road Musalla","post_status": "publish","post_type": "post","Location": "Unit 4, 13 Albert Road, Strathfield, NSW, 2135","Longitude": 151.091715,"Latitude": -33.871117}, {"ID": 483,"post_title": "Surry Hills - King Faisal Mosque","post_status": "publish","post_type": "post","Location": "175-177 Commonwealth Street, Surry Hills, NSW 2010","Longitude": 151.210617,"Latitude": -33.88188}, {"ID": 485,"post_title": "Sydney City - Argyle Place - Millers Point Musalla (Jummah Only)","post_status": "publish","post_type": "post","Location": "15A Argyle Place, Millers Point, Sydney CBD, NSW, 2000","Longitude": 151.202963,"Latitude": -33.858207}, {"ID": 487,"post_title": "Sydney City - Darling Harbour Musalla","post_status": "publish","post_type": "post","Location": "Suite 26A, 5 Erskine Street, Sydney. NSW 2000","Longitude": 151.202001,"Latitude": -33.867115}, {"ID": 489,"post_title": "Sydney City - Surrey Street Darlinghurst Musalla","post_status": "publish","post_type": "post","Location": "62 Surrey Street, Darlinghurst. NSW 2010","Longitude": 151.223565,"Latitude": -33.877414}, {"ID": 491,"post_title": "Sydney City - Ultimo Aspire Hotel (Jummah only)","post_status": "publish","post_type": "post","Location": "383-389 Bulwara Road, Ultimo, NSW, 2007","Longitude": 151.198623,"Latitude": -33.880408}, {"ID": 493,"post_title": "Sydney City - University of Central Queensland Musalla","post_status": "publish","post_type": "post","Location": "333 Kent Street, Sydney, NSW 2000","Longitude": 151.20421,"Latitude": -33.867852}, {"ID": 495,"post_title": "Sydney City - UTS Musalla","post_status": "publish","post_type": "post","Location": "1 Broadway, Ultimo, NSW 2007","Longitude": 151.201615,"Latitude": -33.883955}, {"ID": 498,"post_title": "Sydney City - York Street Musalla (Jummah Only)","post_status": "publish","post_type": "post","Location": "32 York Street, Sydney, NSW, 2001","Longitude": 151.206197,"Latitude": -33.869097}, {"ID": 500,"post_title": "Tamworth (Kootingal) - Yarrol Road Musalla","post_status": "publish","post_type": "post","Location": "52 Yarrol Road, Kootingal, NSW 2352","Longitude": 151.03423,"Latitude": -31.062104}, {"ID": 502,"post_title": "Tempe - Al Hijrah Mosque","post_status": "publish","post_type": "post","Location": "45 Station Street, Tempe, NSW 2044","Longitude": 151.159367,"Latitude": -33.925348}, {"ID": 504,"post_title": "Ultimo - TAFE Prayer Room","post_status": "publish","post_type": "post","Location": "19 Mary Ann Street, Ultimo, NSW, 2007","Longitude": 151.199846,"Latitude": -33.881934}, {"ID": 506,"post_title": "Wagga Wagga - Charles Sturt University Mosque","post_status": "publish","post_type": "post","Location": "Boorooma Street, Wagga Wagga, NSW 2650","Longitude": 147.357598,"Latitude": -35.076351}, {"ID": 508,"post_title": "Warwick Farm - Sydney Road Hume Highway Musalla","post_status": "publish","post_type": "post","Location": "Unit 6, 10-14 Hume Highway, Warwick Farm, NSW 2170","Longitude": 150.93013,"Latitude": -33.914444}, {"ID": 510,"post_title": "Wentworthville - Lower Mount Street Musalla","post_status": "publish","post_type": "post","Location": "23 Lower Mount Street, Wentworthville, NSW 2145","Longitude": 150.972442,"Latitude": -33.799503}, {"ID": 513,"post_title": "Westmead Hospital Musalla","post_status": "publish","post_type": "post","Location": "cnr Darcy rd & Hawkesbury Rd, Westmead, NSW 2145","Longitude": 150.988377,"Latitude": -33.806425}, {"ID": 515,"post_title": "Wiley Park - Edge Street Musalla","post_status": "publish","post_type": "post","Location": "11 Edge Street, Wiley Park, NSW 2195","Longitude": 151.072022,"Latitude": -33.926347}, {"ID": 517,"post_title": "Willoughby North - Warrane Rd Community Centre (Jummah only)","post_status": "publish","post_type": "post","Location": "Warrane Road & McClelland Street, Willoughby North, NSW 2068","Longitude": 151.205177,"Latitude": -33.795536}, {"ID": 519,"post_title": "Wollongong North - Essence of Life Islamic Centre","post_status": "publish","post_type": "post","Location": "118 Montague St, Wollongong North, NSW 2500","Longitude": 150.894366,"Latitude": -34.408839}, {"ID": 521,"post_title": "Wyong - Cenrtal Coast Howarth Street Mosque","post_status": "publish","post_type": "post","Location": "13A Howarth Street, Wyong, NSW 2259","Longitude": 151.425272,"Latitude": -33.288696}, {"ID": 525,"post_title": "Yagoona - Hume Highway - Fitya Centre Musalla","post_status": "publish","post_type": "post","Location": "1st Floor, 568 Hume Highway, Yagoona, NSW 2199","Longitude": 151.02188,"Latitude": -33.907054}, {"ID": 527,"post_title": "Young - Moppity Road Mosque","post_status": "publish","post_type": "post","Location": "cnr Moppity Road & westem ave, Young. NSW 2594","Longitude": 148.309905,"Latitude": -34.325742}, {"ID": 529,"post_title": "Zetland - Bourke Street Mosque","post_status": "publish","post_type": "post","Location": "932 Bourke Street, Zetland, NSW, 2017","Longitude": 151.205637,"Latitude": -33.904304}, {"ID": 531,"post_title": "Hoppers Crossing - Al Taqwa Mosque","post_status": "publish","post_type": "post","Location": "201 Sayers Road, Hoppers Crossing, VIC 3029","Longitude": 144.721856,"Latitude": -37.854716}, {"ID": 535,"post_title": "Albanvale - Station Road - Deer Park Mosque","post_status": "publish","post_type": "post","Location": "283 Station Road, Albanvale, VIC 3025","Longitude": 144.777936,"Latitude": -37.748867}, {"ID": 537,"post_title": "Albury Wodonga - South Street Musalla","post_status": "publish","post_type": "post","Location": "25 South Street, Wodonga, VIC 3690","Longitude": 146.88684,"Latitude": -36.118014}, {"ID": 542,"post_title": "Ararat - High Street Islamic Centre","post_status": "publish","post_type": "post","Location": "High Street, Ararat, VIC 3377","Longitude": 142.940239,"Latitude": -37.283427}, {"ID": 544,"post_title": "Ardeer - Ballarat Road - Sunshine Masjid","post_status": "publish","post_type": "post","Location": "618 Ballarat Road, Ardeer, VIC 3022","Longitude": 144.801402,"Latitude": -37.771206}, {"ID": 547,"post_title": "Avalon - Cozens Road - IPDC Islamic Centre","post_status": "publish","post_type": "post","Location": "10 Cozens Road, Avalon, VIC 3212","Longitude": 144.429569,"Latitude": -38.040614}, {"ID": 551,"post_title": "Ballarat - Alfredton Lauderdale Ave Musalla (Temporary)","post_status": "publish","post_type": "post","Location": "11 Lauderdale Avenue, Alfredton, VIC 3350","Longitude": 143.810018,"Latitude": -37.557557}, {"ID": 555,"post_title": "Box Hill - TAFE Musalla","post_status": "publish","post_type": "post","Location": "Box hill institute of TAFE, 258 Nelson Road, VIC, 3128","Longitude": 145.119116,"Latitude": -37.816717}, {"ID": 559,"post_title": "Broadmeadows - King Street Mosque","post_status": "publish","post_type": "post","Location": "45-55 King Street, Dallas, VIC 3047","Longitude": 144.94163,"Latitude": -37.668441}, {"ID": 563,"post_title": "Brunswick - Islamic Call Society - Michael St Mosque","post_status": "publish","post_type": "post","Location": "19 Michael Street, Brunswick, VIC 3056","Longitude": 144.959692,"Latitude": -37.772613}, {"ID": 566,"post_title": "Brunswick - Sydney Road Mosque","post_status": "publish","post_type": "post","Location": "660 Sydney Road, Brunswick, VIC 3056","Longitude": 144.963395,"Latitude": -37.761938}, {"ID": 568,"post_title": "Burwood - Deakin University Burwood Campus Musalla","post_status": "publish","post_type": "post","Location": "221 Burwood Highway, Burwood, VIC 3125","Longitude": 145.115849,"Latitude": -37.849399}, {"ID": 570,"post_title": "Campbellfield - Mason Street Mosque","post_status": "publish","post_type": "post","Location": "48 Mason Street, Campbellfield, VIC 3061","Longitude": 144.966743,"Latitude": -37.672337}, {"ID": 572,"post_title": "Carlton - Royal Women's Hospital Musalla","post_status": "publish","post_type": "post","Location": "Royal Womens Hospital, 132 Grattan St, Carlton VIC 3053","Longitude": 144.955823,"Latitude": -37.799256}, {"ID": 574,"post_title": "Carlton North - Drummond Street Mosque","post_status": "publish","post_type": "post","Location": "765 Drummond Street, Carlton North, VIC 3054","Longitude": 144.970753,"Latitude": -37.786692}, {"ID": 576,"post_title": "Caulfield - Monash University Musalla","post_status": "publish","post_type": "post","Location": "Monash University Caulfield Campus, 900 Dandenong Road, VIC 3145","Longitude": 145.045831,"Latitude": -37.876822}, {"ID": 578,"post_title": "Churchill - Monash University Gippsland Campus Musalla","post_status": "publish","post_type": "post","Location": "Monash University - Gippsland Campus, Northways Rd, Churchill Victoria 3842","Longitude": 146.426278,"Latitude": -38.311633}, {"ID": 580,"post_title": "City - RMIT City Campus Musalla","post_status": "publish","post_type": "post","Location": "Bowen Street, Melbourne. VIC 3000","Longitude": 144.96408,"Latitude": -37.807603}, {"ID": 582,"post_title": "City - RMIT International Campus Musalla","post_status": "publish","post_type": "post","Location": "265 Bourke Street, Melbourne, VIC 3000","Longitude": 144.965939,"Latitude": -37.813586}, {"ID": 584,"post_title": "Clayton - Monash University Mosque","post_status": "publish","post_type": "post","Location": "16 Beddoe Ave Clayton VIC 3168","Longitude": 145.128784,"Latitude": -37.908617}, {"ID": 586,"post_title": "Clayton - Monash University Prayer Room","post_status": "publish","post_type": "post","Location": "Monash University - Clayton Campus, Clayton, VIC, 3168","Longitude": 145.133334,"Latitude": -37.910755}, {"ID": 588,"post_title": "Clayton South - Rosebank Ave - Westall Mosque","post_status": "publish","post_type": "post","Location": "130 Rosebank Avenue, Clayton South, VIC 3169","Longitude": 145.137969,"Latitude": -37.940503}, {"ID": 590,"post_title": "Coburg - Nicholson Street - Faith Mosque","post_status": "publish","post_type": "post","Location": "31 Nicholson Street, Coburg, VIC 3058","Longitude": 144.975244,"Latitude": -37.755133}, {"ID": 592,"post_title": "Coburg North - Sydney Road - ISNA Mosque","post_status": "publish","post_type": "post","Location": "995 Sydney Road, Coburg North, VIC 3058","Longitude": 144.963381,"Latitude": -37.725114}, {"ID": 594,"post_title": "Dallas - Miligurus Organisation - Ilim College Mosque","post_status": "publish","post_type": "post","Location": "30 Inverloch Crescent, Dallas, VIC 3047","Longitude": 144.929916,"Latitude": -37.670606}, {"ID": 596,"post_title": "Dandenong - Cleeland St - Emir Sultan Mosque","post_status": "publish","post_type": "post","Location": "139 - 141 Cleeland Street, Dandenong, VIC 3175","Longitude": 145.216101,"Latitude": -37.974681}, {"ID": 599,"post_title": "Dandenong - Dalgety Street Mosque","post_status": "publish","post_type": "post","Location": "12 Dalgety Street, Dandenong. VIC 3175","Longitude": 145.208304,"Latitude": -37.994033}, {"ID": 601,"post_title": "Doncaster East - George Street Mosque","post_status": "publish","post_type": "post","Location": "72 George Street, Doncaster East, VIC 3109","Longitude": 145.154445,"Latitude": -37.78153}, {"ID": 603,"post_title": "Doveton - Photinia Street - Dandenong Afghan Masjid","post_status": "publish","post_type": "post","Location": "14 Photinia Street, Doveton, VIC 3177","Longitude": 145.235996,"Latitude": -37.992401}, {"ID": 605,"post_title": "Fawkner - Baird St - Darul Ulum Islamic College Mosque","post_status": "publish","post_type": "post","Location": "Darul Ulum College of Victoria, Roma Street Fawkner, VIC 3060","Longitude": 144.971289,"Latitude": -37.705203}, {"ID": 607,"post_title": "Fitzroy - Fitzroy Street - Turkish Mosque","post_status": "publish","post_type": "post","Location": "144 Fitzroy Street, Fitzroy, VIC 3065","Longitude": 144.976408,"Latitude": -37.804379}, {"ID": 609,"post_title": "Flora Hill - Bendigo La Trobe University Musalla","post_status": "publish","post_type": "post","Location": "Sharon Street & Keck Street, Flora Hill, VIC 3550","Longitude": 144.294089,"Latitude": -36.777474}, {"ID": 611,"post_title": "Footscray - Pickett Street Mosque","post_status": "publish","post_type": "post","Location": "30A Pickett Street, Footscray, VIC 3011","Longitude": 144.895794,"Latitude": -37.801257}, {"ID": 613,"post_title": "Footscray - Raleigh Street Musalla","post_status": "publish","post_type": "post","Location": "50 Raleigh Street. Footscray. VIC 3011","Longitude": 144.893985,"Latitude": -37.802113}, {"ID": 615,"post_title": "Frankston - Monash University Multi Faith Prayer Room","post_status": "publish","post_type": "post","Location": "Monash University Peninsula Campus, McMahons Road, Frankston, VIC, 3199","Longitude": 145.136946,"Latitude": -38.143138}, {"ID": 617,"post_title": "Glenroy - Wheatsheaf Road Musalla","post_status": "publish","post_type": "post","Location": "1st Floor, 92 Wheatsheaf Road, Glenroy. VIC 3046","Longitude": 144.919311,"Latitude": -37.706159}, {"ID": 619,"post_title": "Hawthorn - Swinburne University Musalla","post_status": "publish","post_type": "post","Location": "Burwood Rd & John St. Hawthorn, Vic 3122","Longitude": 145.03881,"Latitude": -37.82303}, {"ID": 621,"post_title": "Heidelberg Heights - Elliott Street Mosque","post_status": "publish","post_type": "post","Location": "Elliott Street & Lloyd Street, Heidelberg Heights, VIC 3081","Longitude": 145.051316,"Latitude": -37.743908}, {"ID": 623,"post_title": "Hoppers Crossing - The Virgin Mary Werribee Mosque","post_status": "publish","post_type": "post","Location": "143A Hogans Road, Hoppers Crossing. VIC 3029","Longitude": 144.684129,"Latitude": -37.863326}, {"ID": 631,"post_title": "Hobart - University of Tasmania- TUU Mosque","post_status": "publish","post_type": "post","Location": "University of Tasmania, churchill avenue, sandy bay, TAS, 7005","Longitude": 147.325984,"Latitude": -42.904857}, {"ID": 633,"post_title": "Hobart - University of Tasmania Musalla","post_status": "publish","post_type": "post","Location": "40 Alexander Street, Sandy Bay, TAS 7005","Longitude": 147.324534,"Latitude": -42.902481}, {"ID": 635,"post_title": "Launceston - University of Tasmania Musalla","post_status": "publish","post_type": "post","Location": "Building 3, School Road, Newnham, TAS 7248","Longitude": 147.124215,"Latitude": -41.399567}, {"ID": 638,"post_title": "West Hobart - Warwick Street Mosque","post_status": "publish","post_type": "post","Location": "166 Warwick Street, West Hobart, TAS 7001","Longitude": 147.315092,"Latitude": -42.881513}, {"ID": 640,"post_title": "Alice Springs - Larapinta Lyndavale Drive Mosque","post_status": "publish","post_type": "post","Location": "101 Lyndavale Drive, Larapinta, NT 0870","Longitude": 133.8334,"Latitude": -23.69531}, {"ID": 643,"post_title": "Casurina -Wanguri - Casurina Darwin Mosque","post_status": "publish","post_type": "post","Location": "53 Vanderlin Drive, Casurina, NT 0810","Longitude": 130.88861,"Latitude": -12.376831}, {"ID": 646,"post_title": "Acton - Australian National University Musalla","post_status": "publish","post_type": "post","Location": "North Road, Acton ACT 2601","Longitude": 149.12102,"Latitude": -35.27505}, {"ID": 650,"post_title": "Bruce - University of Canberra Musalla","post_status": "publish","post_type": "post","Location": "University of Canberra, Kirinari Street, Bruce, ACT 2617","Longitude": 149.085239,"Latitude": -35.239645}, {"ID": 652,"post_title": "Canberra City - London Circuit Musalla","post_status": "publish","post_type": "post","Location": "180 London Circuit, Canberra City, ACT 2601","Longitude": 149.130642,"Latitude": -35.281229}, {"ID": 656,"post_title": "Monash - Canberra Islamic Centre","post_status": "publish","post_type": "post","Location": "221 Clive Steele Avenue, Monash, ACT 2904","Longitude": 149.090141,"Latitude": -35.422313}, {"ID": 660,"post_title": "Palmerston - Tiptree Crescent - Gunghalin Musalla","post_status": "publish","post_type": "post","Location": "10 Tiptree Crescent, Palmerston, ACT 2913","Longitude": 149.118326,"Latitude": -35.196477}, {"ID": 663,"post_title": "Spence - Belconnen Musalla","post_status": "publish","post_type": "post","Location": "55 Crofts Crescent, Spence, ACT 2615","Longitude": 149.065605,"Latitude": -35.198544}, {"ID": 665,"post_title": "Theodore - Goldfinch Circuit Musalla","post_status": "publish","post_type": "post","Location": "29 Goldfinch Circuit, Theodore, ACT 2905","Longitude": 149.123152,"Latitude": -35.452391}, {"ID": 668,"post_title": "Yarralumla - Canberra Empire Circuit Mosque","post_status": "publish","post_type": "post","Location": "130 Empire Circuit, Yarralumla, ACT 2600","Longitude": 149.112366,"Latitude": -35.305297}, {"ID": 673,"post_title": "Adelaide - Little Gilbert Street Mosque","post_status": "publish","post_type": "post","Location": "20 Little Gilbert Street, Adelaide, SA 5000","Longitude": 138.59173,"Latitude": -34.934188}, {"ID": 676,"post_title": "Adelaide - University of Adelaide (North Terrace) Musalla","post_status": "publish","post_type": "post","Location": "Victoria Drive & Kintore Avenue, Adelaide, SA 5000","Longitude": 138.601587,"Latitude": -34.91725}, {"ID": 678,"post_title": "Adelaide - University of South Australia (East) Musalla","post_status": "publish","post_type": "post","Location": "Frome Road & North Terrace, Adelaide, SA 5000","Longitude": 138.607735,"Latitude": -34.921183}, {"ID": 680,"post_title": "Adelaide - University of South Australia (West) Musalla","post_status": "publish","post_type": "post","Location": "George Street, Adelaide, SA 5000","Longitude": 138.590833,"Latitude": -34.922738}, {"ID": 682,"post_title": "Adelaide Airport - Domestic International Prayer room","post_status": "publish","post_type": "post","Location": "Sir Richard Williams Avenue, Adelaide Airport, SA 5950","Longitude": 138.536756,"Latitude": -34.937701}, {"ID": 684,"post_title": "Elizabeth Grove - Hogarth Road Elizabeth Mosque","post_status": "publish","post_type": "post","Location": "139-141 Hogarth Road, Elizabeth Grove, SA 5112","Longitude": 138.662972,"Latitude": -34.739538}, {"ID": 686,"post_title": "Gepps Cross - Dry Creek Turkish & Islamic Cultural Centre","post_status": "publish","post_type": "post","Location": "714 Main North Road, Dry Creek, SA 5094","Longitude": 138.607453,"Latitude": -34.838033}, {"ID": 689,"post_title": "Gilles Plains - Wandana Avenue Mosque","post_status": "publish","post_type": "post","Location": "52 Wandana Avenue, Gilles Plains, SA 5086","Longitude": 138.659992,"Latitude": -34.848}, {"ID": 691,"post_title": "Magill - University of South Australia Musalla","post_status": "publish","post_type": "post","Location": "27 Lorne Avenue, Magill, SA 5072","Longitude": 138.672037,"Latitude": -34.909812}, {"ID": 693,"post_title": "Mawson Lakes - University of South Australia Musalla","post_status": "publish","post_type": "post","Location": "Mawson Lakes Boulevard & Main St, Mawson Lakes, SA 5095","Longitude": 138.616908,"Latitude": -34.810839}, {"ID": 695,"post_title": "Mt Barker - Macfarlane Terrace Mount Barker Mosque","post_status": "publish","post_type": "post","Location": "7 Macfarlane Terrace, Mt Barker, SA 5251","Longitude": 138.863006,"Latitude": -35.065174}, {"ID": 697,"post_title": "Mount Gambier - Prayer Room","post_status": "publish","post_type": "post","Location": "Penola Road, Mount Gambier, SA 5290","Longitude": 140.787057,"Latitude": -37.815937}, {"ID": 699,"post_title": "Murray Bridge - Old Swanport Road Mosque","post_status": "publish","post_type": "post","Location": "Lot 53, Old Swanport Road, Murray Bridge, SA 5253","Longitude": 139.254308,"Latitude": -35.14405}, {"ID": 701,"post_title": "North Adelaide - Women & Childrens Hospital (Prayer room)","post_status": "publish","post_type": "post","Location": "72 King William Rd, North Adelaide, SA 5006","Longitude": 138.600324,"Latitude": -34.911882}, {"ID": 703,"post_title": "Park Holme - Marion Road Mosque","post_status": "publish","post_type": "post","Location": "658 Marion Road, Park Holme, SA 5043","Longitude": 138.55629,"Latitude": -34.988844}, {"ID": 705,"post_title": "Renmark - Fourteenth Street Mosque","post_status": "publish","post_type": "post","Location": "230 Fourteenth Street, Renmark, SA 5341","Longitude": 140.746202,"Latitude": -34.168976}, {"ID": 707,"post_title": "Royal Park - Bosniaks' Mosque","post_status": "publish","post_type": "post","Location": "1 Frederick Road, Royal Park, SA 5014","Longitude": 138.502985,"Latitude": -34.861522}, {"ID": 709,"post_title": "Whyalla - Morris Crescent Mosque","post_status": "publish","post_type": "post","Location": "5 Morris Crescent, Whyalla Norrie, SA 5608","Longitude": 137.550824,"Latitude": -33.019378}, {"ID": 711,"post_title": "Woodville North - Al-Khalil Mosque (Islamic Arabic Centre)","post_status": "publish","post_type": "post","Location": "Torrens Road & Audley Street, Woodville North, SA 5012","Longitude": 138.538316,"Latitude": -34.869028}, {"ID": 714,"post_title": "Albany - Serpentine Road Musalla","post_status": "publish","post_type": "post","Location": "166 Serpentine Road, Albany, WA 6330","Longitude": 117.877819,"Latitude": -35.020289}, {"ID": 717,"post_title": "Beresford - Walter Street - George Road Geraldton Mosque","post_status": "publish","post_type": "post","Location": "172 Walter Street, Beresford, WA 6530","Longitude": 114.621976,"Latitude": -28.757144}, {"ID": 719,"post_title": "Cannington - Masjid Al-Sunnah","post_status": "publish","post_type": "post","Location": "Unit 1, 45 Kent Street Cannington, WA 6107","Longitude": 115.926476,"Latitude": -32.01623}, {"ID": 721,"post_title": "Clarkson Musalla","post_status": "publish","post_type": "post","Location": "2/30 Ainsbury Parade, Clarkson, WA 6036","Longitude": 115.717055,"Latitude": -31.678619}, {"ID": 723,"post_title": "Crawley - University of Western Australia Musalla","post_status": "publish","post_type": "post","Location": "35 Stirling Highway, Crawley. WA 6009","Longitude": 115.818821,"Latitude": -31.98006}, {"ID": 725,"post_title": "Gosnells - Masjid Al-Rahman & Islamic Centre","post_status": "publish","post_type": "post","Location": "54 Mills Road West, Gosnells, WA 6110","Longitude": 116.004134,"Latitude": -32.067129}, {"ID": 737,"post_title": "Horsham - Horsham Musalla","post_status": "publish","post_type": "post","Location": "Horsham, VIC 3400","Longitude": 142.199905,"Latitude": -36.713136}, {"ID": 740,"post_title": "Huntingdale - Huntingdale Road Mosque","post_status": "publish","post_type": "post","Location": "322 Huntingdale Road, Huntingdale, VIC 3166","Longitude": 145.103852,"Latitude": -37.911017}, {"ID": 742,"post_title": "Keysborough - Greens Road Mosque","post_status": "publish","post_type": "post","Location": "396 Greens Road, Keysborough, VIC 3173","Longitude": 145.176904,"Latitude": -38.013725}, {"ID": 744,"post_title": "Lysterfield - Wellington Road Mosque","post_status": "publish","post_type": "post","Location": "1273 Wellington Road, Lysterfield, VIC 3156","Longitude": 145.270679,"Latitude": -37.927634}, {"ID": 746,"post_title": "Maidstone - Studley Street Mosque","post_status": "publish","post_type": "post","Location": "36 Studley Street, Maidstone, VIC 3012","Longitude": 144.879343,"Latitude": -37.787706}, {"ID": 748,"post_title": "Manifold Heights - Bostock Avenue - Geelong Mosque","post_status": "publish","post_type": "post","Location": "47 Bostock Avenue, Manifold Heights, VIC 3218","Longitude": 144.333857,"Latitude": -38.133831}, {"ID": 750,"post_title": "Meadow Heights - Hudson Circuit Mosque","post_status": "publish","post_type": "post","Location": "15 Hudson Circuit, Meadow Heights, VIC 3048","Longitude": 144.921125,"Latitude": -37.651669}, {"ID": 752,"post_title": "Melbourne Airport - International Terminal - Prayer room","post_status": "publish","post_type": "post","Location": "Arrival Drive, Melbourne Airport VIC 3045","Longitude": 144.853435,"Latitude": -37.670099}, {"ID": 754,"post_title": "Mildura - Tenth Street Mosque","post_status": "publish","post_type": "post","Location": "49 Tenth Street, Mildura, VIC 3500","Longitude": 142.166047,"Latitude": -34.194278}, {"ID": 756,"post_title": "Mooroopna - McLennan St - Goulburn Vale Mosque","post_status": "publish","post_type": "post","Location": "209 McLennan Street, Mooroopna, VIC 3629","Longitude": 145.346523,"Latitude": -36.397047}, {"ID": 758,"post_title": "Narre Warren North - Belgrave Hallam Road Mosque","post_status": "publish","post_type": "post","Location": "131-137 Belgrave Hallam Road, Narre Warren North. Vic 3804","Longitude": 145.278437,"Latitude": -37.989331}, {"ID": 761,"post_title": "Newport - Walker Street - Bilal Bin Rabah Mosque","post_status": "publish","post_type": "post","Location": "1 Walker street, Newport, VIC 3015","Longitude": 144.881662,"Latitude": -37.84215}, {"ID": 763,"post_title": "Noble Park - Leonard Avenue Mosque","post_status": "publish","post_type": "post","Location": "18 Leonard Avenue, Noble Park, VIC 3174","Longitude": 145.175221,"Latitude": -37.969548}, {"ID": 765,"post_title": "Parkville - Royal Melbourne Hospital Musalla","post_status": "publish","post_type": "post","Location": "300 Grattan Street, Parkville. VIC 3053","Longitude": 144.964232,"Latitude": -37.800447}, {"ID": 769,"post_title": "Prahan - Western Thrace Islamic Society - Union Street Mosque","post_status": "publish","post_type": "post","Location": "103 Union Street, Windsor, VIC 3181","Longitude": 144.989638,"Latitude": -37.853984}, {"ID": 771,"post_title": "Preston - Cramer St - Omar Bin Khattab Mosque","post_status": "publish","post_type": "post","Location": "90 Cramer Street, Preston, VIC 3072","Longitude": 144.993177,"Latitude": -37.739246}, {"ID": 773,"post_title": "Roxburgh Park - Coolaroo Hume Islamic Youth Centre","post_status": "publish","post_type": "post","Location": "1-15 Motto Drive, Coolaroo, VIC 3048","Longitude": 144.931966,"Latitude": -37.642846}, {"ID": 775,"post_title": "Roxburgh Park - Homestead Musalla - Darul Arqam","post_status": "publish","post_type": "post","Location": "20 Whiltshire Drive, Roxburgh Park, VIC 3064","Longitude": 144.917186,"Latitude": -37.634626}, {"ID": 777,"post_title": "Roxburgh Park - Hume Muslim Society Musalla","post_status": "publish","post_type": "post","Location": "Lakeside Drive, Roxburgh Park, VIC 3064","Longitude": 144.934972,"Latitude": -37.628738}, {"ID": 780,"post_title": "Shepparton - Acacia Street Mosque","post_status": "publish","post_type": "post","Location": "8 Acacia Street, Shepparton, VIC 3630","Longitude": 145.418713,"Latitude": -36.365135}, {"ID": 783,"post_title": "Springvale - Garnsworthy Street Mosque","post_status": "publish","post_type": "post","Location": "68 Garnsworthy Street, Springvale. VIC 3171","Longitude": 145.162217,"Latitude": -37.942294}, {"ID": 785,"post_title": "Springvale - Lewis Street - Minaret College Musalla","post_status": "publish","post_type": "post","Location": "38 Lewis Street, Springvale, VIC 3171","Longitude": 145.148536,"Latitude": -37.937932}, {"ID": 787,"post_title": "Springvale South - Al-Furqan Islamic Information Centre","post_status": "publish","post_type": "post","Location": "5 Wardale Road, Springvale South. VIC 3172","Longitude": 145.15876,"Latitude": -37.970068}, {"ID": 789,"post_title": "Springvale South - Hosken Street Musalla","post_status": "publish","post_type": "post","Location": "9A Hosken Street, Springvale South, VIC 3172","Longitude": 145.160828,"Latitude": -37.96435}, {"ID": 791,"post_title": "St Kilda East - Alma Rd Neighbourhood House (Jumma only)","post_status": "publish","post_type": "post","Location": "200 Alma Road, St Kilda East, VIC 3183","Longitude": 145.007477,"Latitude": -37.863194}, {"ID": 793,"post_title": "Thomastown - Station Street Mosque","post_status": "publish","post_type": "post","Location": "130 Station Street, Thomastown, VIC 3074","Longitude": 145.014937,"Latitude": -37.681454}, {"ID": 797,"post_title": "Warrnambool - Warrnambool Islamic Society","post_status": "publish","post_type": "post","Location": "Bellmans Road, Bushfield, VIC 3281","Longitude": 142.501881,"Latitude": -38.320534}, {"ID": 799,"post_title": "West Footscray - Essex Street - Maidstone Mosque","post_status": "publish","post_type": "post","Location": "294 Essex St, West Footscray, VIC 3012","Longitude": 144.864396,"Latitude": -37.792097}, {"ID": 801,"post_title": "West Melbourne - Jeffcott St Mosque","post_status": "publish","post_type": "post","Location": "66-68 Jeffcott St, West Melbourne, VIC 3003","Longitude": 144.951383,"Latitude": -37.811761}, {"ID": 803,"post_title": "Windsor - Kent Street - Prahran Mosque","post_status": "publish","post_type": "post","Location": "16 Kent Street, Windsor, VIC 3181","Longitude": 144.987317,"Latitude": -37.851473}, {"ID": 805,"post_title": "Yallourn North - Gippsland Mosque","post_status": "publish","post_type": "post","Location": "11 Baillie St, Yallourn North, VIC 3825","Longitude": 146.355963,"Latitude": -38.154945}, {"ID": 814,"post_title": "Algester - Learoyd Road Musalla","post_status": "publish","post_type": "post","Location": "48 Learoyd Road, Algester, QLD 4115","Longitude": 153.036498,"Latitude": -27.599665}, {"ID": 816,"post_title": "Arundel - Allied Drive - Gold Coast Mosque","post_status": "publish","post_type": "post","Location": "144 Allied Drive, Arundel, QLD 4214","Longitude": 153.386945,"Latitude": -27.938796}, {"ID": 818,"post_title": "Bald Hills - Telegraph Road Mosque","post_status": "publish","post_type": "post","Location": "119 Telegraph Road, Bald Hills, QLD 4036","Longitude": 153.01376,"Latitude": -27.329207}, {"ID": 820,"post_title": "Brassall - Waterworks Road - Ipswich Mosque","post_status": "publish","post_type": "post","Location": "30 Waterworks Road, Brassall, QLD 4305","Longitude": 152.753828,"Latitude": -27.585682}, {"ID": 823,"post_title": "Brisbane Airport - Internnational Terminal Musalla","post_status": "publish","post_type": "post","Location": "International Terminal, Airport Drive, Brisbane Airport, QLD 4007","Longitude": 153.064801,"Latitude": -27.431265}, {"ID": 827,"post_title": "Brisbane City - Gardens Point - QUT Musalla","post_status": "publish","post_type": "post","Location": "2 George Street, Brisbane, QLD 4000","Longitude": 153.028414,"Latitude": -27.477721}, {"ID": 829,"post_title": "Bundaberg North - Hanbury Street - Turkish Mosque","post_status": "publish","post_type": "post","Location": "76 Hanbury Street, Bundaberg North, QLD 4670","Longitude": 152.324195,"Latitude": -24.860257}, {"ID": 831,"post_title": "Buranda - Darul Uloom Islamic Academy of Brisbane","post_status": "publish","post_type": "post","Location": "6 Agnes St, Woolloongabba, QLD 4102","Longitude": 153.035936,"Latitude": -27.495493}, {"ID": 833,"post_title": "Cairns North - Cairns Dunn Street Mosque","post_status": "publish","post_type": "post","Location": "31 Dunn Street, Cairns North, QLD 4870","Longitude": 145.763672,"Latitude": -16.916401}, {"ID": 835,"post_title": "Capalaba - Veronica Street Mosque","post_status": "publish","post_type": "post","Location": "26 Veronica Street, Capalaba, QLD 4157","Longitude": 153.197182,"Latitude": -27.526827}, {"ID": 837,"post_title": "Coomera - Principal Drive - Dreamworld Musalla","post_status": "publish","post_type": "post","Location": "Dreamworld Parkway, Coomera. QLD 4209","Longitude": 153.315066,"Latitude": -27.868184}, {"ID": 839,"post_title": "Eagleby - Fryer Road Mosque","post_status": "publish","post_type": "post","Location": "262 Fryar Road, Eagleby, QLD 4207","Longitude": 153.215108,"Latitude": -27.691243}, {"ID": 841,"post_title": "Eight Mile Plains - Logan Road - Rochedale Mosque","post_status": "publish","post_type": "post","Location": "2674 Logan Road, Eight Mile Plains, QLD 4113","Longitude": 153.10507,"Latitude": -27.586264}, {"ID": 843,"post_title": "Gatton - University of Queensland Musalla","post_status": "publish","post_type": "post","Location": "Fieldings Road, College View, QLD 4343","Longitude": 152.344984,"Latitude": -27.544795}, {"ID": 845,"post_title": "Gympie - Alma Street Musalla - Jummah Only","post_status": "publish","post_type": "post","Location": "7 Alma Street, Gympie, QLD 4570","Longitude": 152.666982,"Latitude": -26.189926}, {"ID": 847,"post_title": "Holland Park - Nursery Road Mosque","post_status": "publish","post_type": "post","Location": "309 Nursery Road, Holland Park, QLD 4121","Longitude": 153.075412,"Latitude": -27.527034}, {"ID": 849,"post_title": "Kelvin Grove - Queensland University of Technology Musalla","post_status": "publish","post_type": "post","Location": "Victoria Park Road, Kelvin Grove, QLD 4059","Longitude": 153.016053,"Latitude": -27.453517}, {"ID": 851,"post_title": "Kingston - Logan City Marsden Mosque","post_status": "publish","post_type": "post","Location": "260 Third Avenue, Kingston, QLD 4114","Longitude": 153.091116,"Latitude": -27.658575}, {"ID": 853,"post_title": "Kuraby - Beenleigh Road - Majid Al Farooq","post_status": "publish","post_type": "post","Location": "1408 Beenleigh Road, Kuraby, QLD 4112","Longitude": 153.093489,"Latitude": -27.605898}, {"ID": 855,"post_title": "Mackay - Tom Thumb Court - Bakers Creek Mosque","post_status": "publish","post_type": "post","Location": "5 Tom Thumb Court, Bakers Creek, QLD 4740","Longitude": 149.147622,"Latitude": -21.202668}, {"ID": 858,"post_title": "Main Beach - Seaworld Musalla","post_status": "publish","post_type": "post","Location": "Seaworld Drive, Main Beach, QLD 4217","Longitude": 153.42678,"Latitude": -27.956089}, {"ID": 860,"post_title": "Mareeba - Walsh Street Mosque","post_status": "publish","post_type": "post","Location": "108 Walsh Street, Mareeba, QLD 4880","Longitude": 145.422619,"Latitude": -16.989163}, {"ID": 862,"post_title": "Maroochydore - Duporth Avenue - Sunshine Coast Mosque","post_status": "publish","post_type": "post","Location": "11 Millwell Road, Maroochydore, QLD, 4558","Longitude": 153.081358,"Latitude": -26.655992}, {"ID": 864,"post_title": "Mt. Gravatt - Griffith University - Mount Gravatt Musalla","post_status": "publish","post_type": "post","Location": "176 Messines Ridge Road, Mt Gravatt, QLD 4122","Longitude": 153.06464,"Latitude": -27.543239}, {"ID": 868,"post_title": "Mundingburra - Ross River Road - Townsville Mosque","post_status": "publish","post_type": "post","Location": "183 Ross River Rd, Mundingburra, QLD 4812","Longitude": 146.77832,"Latitude": -19.295404}, {"ID": 870,"post_title": "Nathan - Kessels Road - Griffith University (Jumma Only)","post_status": "publish","post_type": "post","Location": "170 Kessels Road, Nathan, QLD 4111","Longitude": 153.050923,"Latitude": -27.558428}, {"ID": 873,"post_title": "Oxenford - Movie World Musalla","post_status": "publish","post_type": "post","Location": "Warner Bros. Movie World, Pacific Highway, Oxenford, QLD 4210","Longitude": 153.312492,"Latitude": -27.906224}, {"ID": 875,"post_title": "Oxley - Douglas Street - Darra Mosque","post_status": "publish","post_type": "post","Location": "219 Douglas Street, Oxley, QLD 4075","Longitude": 152.970455,"Latitude": -27.567029}, {"ID": 950,"post_title": "Australian Mosque finder start it's Journey","post_status": "publish","post_type": "post","Location": null,"Longitude": null,"Latitude": null}, {"ID": 953,"post_title": "Arncliffe Mosque - Masjid Fatima Al Zahrah Mosque","post_status": "publish","post_type": "post","Location": "3 - 5 Wollongong Rd, Arncliffe, NSW, 2205","Longitude": 151.148761,"Latitude": -33.93235}, {"ID": 965,"post_title": "Beechboro - Bosnian & Hercegovnia Cultural & Recreation Centre","post_status": "publish","post_type": "post","Location": "289 Beechboro Road North, Morley, WA, 6062","Longitude": 115.923834,"Latitude": -31.890758}, {"ID": 967,"post_title": "Bentley - Bentley Community Centre (Jummah only)","post_status": "publish","post_type": "post","Location": "Nyamup Way,Bentley WA 6102","Longitude": 115.910672,"Latitude": -32.010887}, {"ID": 969,"post_title": "Canning - Masjid & Islamic Association","post_status": "publish","post_type": "post","Location": "273 Welshpool Road, Queens Park, WA 6107","Longitude": 115.950381,"Latitude": -31.99783}, {"ID": 978,"post_title": "High Wycombe - Madrasa Talimuddin Musalla","post_status": "publish","post_type": "post","Location": "126 Sultana Road West, High Wycombe, WA, 6057","Longitude": 116.001002,"Latitude": -31.962809}, {"ID": 980,"post_title": "Katanning - Masjid and Islamic Association","post_status": "publish","post_type": "post","Location": "24 Britania Street, Katanning,WA 6317","Longitude": 117.55857,"Latitude": -33.695752}, {"ID": 982,"post_title": "Kenwick Musalla","post_status": "publish","post_type": "post","Location": "408 Bickley Road, Kenwick, WA, 6107","Longitude": 115.986636,"Latitude": -32.029471}, {"ID": 986,"post_title": "Maylands - Masjid & Islamic Centre of WA","post_status": "publish","post_type": "post","Location": "238 Guildford Road, Maylands, WA, 6051","Longitude": 115.896248,"Latitude": -31.929771}, {"ID": 989,"post_title": "Mirrabooka - Masjid Al Taqwa","post_status": "publish","post_type": "post","Location": "Lot 433 Boyare Avenue, Mirrabooka, WA 6061","Longitude": 115.864567,"Latitude": -31.85824}, {"ID": 991,"post_title": "Newman Musalla","post_status": "publish","post_type": "post","Location": "Abydos Way, Newman WA 6753","Longitude": 119.739345,"Latitude": -23.354746}, {"ID": 993,"post_title": "Padbury Al-Majid Mosque","post_status": "publish","post_type": "post","Location": "Walter Padbury Boulevard, Padbury, WA, 6025","Longitude": 115.774856,"Latitude": -31.816257}, {"ID": 996,"post_title": "Perth City - Perth Masjid","post_status": "publish","post_type": "post","Location": "427 William Street, Perth, WA 6000","Longitude": 115.862455,"Latitude": -31.94365}, {"ID": 998,"post_title": "Perth City - Hay Street Mall - Musalla","post_status": "publish","post_type": "post","Location": "Trinity Arcade, Perth, WA, 6000","Longitude": 115.858331,"Latitude": -31.95465}, {"ID": 1001,"post_title": "Port Headland - Masjid & Islamic Association","post_status": "publish","post_type": "post","Location": "34 Trumpet Way, South Hedland, WA, 6722","Longitude": 118.610627,"Latitude": -20.40627}, {"ID": 1003,"post_title": "Rivervale - Masjid & Islamic Council of WA","post_status": "publish","post_type": "post","Location": "7 Malvern Road, Rivervale, WA 6103","Longitude": 115.902608,"Latitude": -31.956751}, {"ID": 1005,"post_title": "Thornlie - Masjid & Australian Islamic College","post_status": "publish","post_type": "post","Location": "7 Tonbridge Way, Thornlie, WA, 6108","Longitude": 115.962487,"Latitude": -32.053301}, {"ID": 1018,"post_title": "Ballarat - Mount Helen University of Ballarat Musalla ","post_status": "publish","post_type": "post","Location": "East Terrace, Mount Helen, VIC 3350","Longitude": 143.895177,"Latitude": -37.626485}]